{
	"models":[{
		"positionLon":114.06329773012003,
		"positionLat":22.540012510276405,
		"name":"深圳彩天名苑ShenzhenCaitianmingyuanGarden(China)",
		"uri":"./3Dmodels/深圳彩天名苑ShenzhenCaitianmingyuanGarden(China).gltf"
	}
	,{
		"positionLon":114.06629965793238,
		"positionLat":22.529005164533118,
		"name":"深圳出入境检验检疫局ShenzhenEntry-ExitInspectionandQuarantineBureauofPRC",
		"uri":"./3Dmodels/深圳出入境检验检疫局ShenzhenEntry-ExitInspectionandQuarantineBureauofPRC.gltf"
	}
	,{
		"positionLon":114.0642989389213,
		"positionLat":22.53236414402537,
		"name":"深圳联合广场ShenzhenUnitedPlaza",
		"uri":"./3Dmodels/深圳联合广场ShenzhenUnitedPlaza.gltf"
	}
	,{
		"positionLon":114.06488117177828,
		"positionLat":22.556237074906935,
		"name":"水塔",
		"uri":"./3Dmodels/水塔.gltf"
	}
	,{
		"positionLon":114.12369728611097,
		"positionLat":22.54651837222986,
		"name":"CuigunCommunity(翠湖小区)",
		"uri":"./3Dmodels/CuigunCommunity(翠湖小区).gltf"
	}
	,{
		"positionLon":114.07117387480142,
		"positionLat":22.543966064936527,
		"name":"GrandSkylightGardenHotel",
		"uri":"./3Dmodels/GrandSkylightGardenHotel.gltf"
	}
	,{
		"positionLon":114.1177701952399,
		"positionLat":22.545906358217973,
		"name":"MetenShenZhen",
		"uri":"./3Dmodels/MetenShenZhen.gltf"
	}
	,{
		"positionLon":114.10483417067447,
		"positionLat":22.54496472642061,
		"name":"PanasonicShenzhen",
		"uri":"./3Dmodels/PanasonicShenzhen.gltf"
	}
	,{
		"positionLon":114.07719581537266,
		"positionLat":22.543808104160377,
		"name":"ShangHai-hotel",
		"uri":"./3Dmodels/ShangHai-hotel.gltf"
	}
	,{
		"positionLon":114.1252977886827,
		"positionLat":22.54663004751596,
		"name":"ShenzhenHungCheongPlaza",
		"uri":"./3Dmodels/ShenzhenHungCheongPlaza.gltf"
	}
	,{
		"positionLon":114.13763781544375,
		"positionLat":22.550179601694396,
		"name":"Shenzhenjingguangcenter",
		"uri":"./3Dmodels/Shenzhenjingguangcenter.gltf"
	}
	,{
		"positionLon":114.1143656965385,
		"positionLat":22.566907866680758,
		"name":"ShenzhenRainbowBridge深圳彩虹桥",
		"uri":"./3Dmodels/ShenzhenRainbowBridge深圳彩虹桥.gltf"
	}
	,{
		"positionLon":114.10511995357082,
		"positionLat":22.545413915346153,
		"name":"ShunHingSquare",
		"uri":"./3Dmodels/ShunHingSquare.gltf"
	}
	,{
		"positionLon":114.10930161220055,
		"positionLat":22.54402963687688,
		"name":"WorldFinancialCenterTowerAB",
		"uri":"./3Dmodels/WorldFinancialCenterTowerAB.gltf"
	}
	,{
		"positionLon":114.11591503754072,
		"positionLat":22.60087375433191,
		"name":"百合酒店",
		"uri":"./3Dmodels/百合酒店.gltf"
	}
	,{
		"positionLon":114.11686417802878,
		"positionLat":22.55970059012473,
		"name":"宝安广场",
		"uri":"./3Dmodels/宝安广场.gltf"
	}
	,{
		"positionLon":114.11509706375695,
		"positionLat":22.604433264816088,
		"name":"布吉火车站",
		"uri":"./3Dmodels/布吉火车站.gltf"
	}
	,{
		"positionLon":114.11742585467336,
		"positionLat":22.604266787240114,
		"name":"大都汇",
		"uri":"./3Dmodels/大都汇.gltf"
	}
	,{
		"positionLon":114.12996232354527,
		"positionLat":22.609599707560715,
		"name":"大分集资房",
		"uri":"./3Dmodels/大分集资房.gltf"
	}
	,{
		"positionLon":114.13217289837577,
		"positionLat":22.610886087905897,
		"name":"大分平房",
		"uri":"./3Dmodels/大分平房.gltf"
	}
	,{
		"positionLon":114.13271532079878,
		"positionLat":22.610722157177033,
		"name":"大分平房3",
		"uri":"./3Dmodels/大分平房3.gltf"
	}
	,{
		"positionLon":114.13145369053404,
		"positionLat":22.612438767661445,
		"name":"大分平房4",
		"uri":"./3Dmodels/大分平房4.gltf"
	}
	,{
		"positionLon":114.08093985606894,
		"positionLat":22.54820692101271,
		"name":"东方时代广场，华强北茂业百货.gltf",
		"uri":"./3Dmodels/东方时代广场，华强北茂业百货.gltf"
	}
	,{
		"positionLon":114.07978571947797,
		"positionLat":22.544362231244193,
		"name":"都会100大厦",
		"uri":"./3Dmodels/都会100大厦.gltf"
	}
	,{
		"positionLon":114.10761935678742,
		"positionLat":22.545038953142036,
		"name":"广东电网深圳供电局ShenzhenPowerSupplyBureauOfGuangdongPowerGrid(China)",
		"uri":"./3Dmodels/广东电网深圳供电局ShenzhenPowerSupplyBureauOfGuangdongPowerGrid(China).gltf"
	}
	,{
		"positionLon":114.0783642347588,
		"positionLat":22.542238026117932,
		"name":"国际科技大厦",
		"uri":"./3Dmodels/国际科技大厦.gltf"
	}
	,{
		"positionLon":114.07981361816002,
		"positionLat":22.543722980885523,
		"name":"佳和华强大厦",
		"uri":"./3Dmodels/佳和华强大厦.gltf"
	}
	,{
		"positionLon":114.1297857622322,
		"positionLat":22.602223856469138,
		"name":"可园14栋",
		"uri":"./3Dmodels/可园14栋.gltf"
	}
	,{
		"positionLon":114.12253013992888,
		"positionLat":22.605495395493925,
		"name":"龙珠花园3",
		"uri":"./3Dmodels/龙珠花园3.gltf"
	}
	,{
		"positionLon":114.12099412736099,
		"positionLat":22.605425966549223,
		"name":"龙珠花园23",
		"uri":"./3Dmodels/龙珠花园23.gltf"
	}
	,{
		"positionLon":114.12690710758429,
		"positionLat":22.55063280638734,
		"name":"罗湖区人民政府",
		"uri":"./3Dmodels/罗湖区人民政府"
	}
	,{
		"positionLon":114.12158787918102,
		"positionLat":22.54758531380867,
		"name":"罗湖商务中心ShanglongBuilding",
		"uri":"./3Dmodels/罗湖商务中心ShanglongBuilding.gltf"
	}
	,{
		"positionLon":114.13436789412695,
		"positionLat":22.54752845672492,
		"name":"深圳999丹枫白露酒店",
		"uri":"./3Dmodels/深圳999丹枫白露酒店.gltf"
	}
	,{
		"positionLon":114.11661517884214,
		"positionLat":22.536605800821025,
		"name":"深圳柏斯顿酒店",
		"uri":"./3Dmodels/深圳柏斯顿酒店.gltf"
	}
	,{
		"positionLon":114.0798954165797,
		"positionLat":22.5428198471527,
		"name":"深圳北方大酒店",
		"uri":"./3Dmodels/深圳北方大酒店.gltf"
	}
	,{
		"positionLon":114.0811888089609,
		"positionLat":22.542117753739728,
		"name":"深圳财富酒店FortuneHotelShenzhen(China)",
		"uri":"./3Dmodels/深圳财富酒店FortuneHotelShenzhen(China).gltf"
	}
	,{
		"positionLon":114.10314068285203,
		"positionLat":22.545086136865425,
		"name":"深圳蔡屋围大酒店ShenzhenCaiwuweiHotel(China)",
		"uri":"./3Dmodels/深圳蔡屋围大酒店ShenzhenCaiwuweiHotel(China).gltf"
	}
	,{
		"positionLon":114.1052351932578,
		"positionLat":22.551774578777394,
		"name":"深圳春天酒店",
		"uri":"./3Dmodels/深圳春天酒店.gltf"
	}
	,{
		"positionLon":114.10034599286648,
		"positionLat":22.545091187878242,
		"name":"深圳大剧院ShenzhenGrandTheater(China)",
		"uri":"./3Dmodels/深圳大剧院ShenzhenGrandTheater(China).gltf"
	}
	,{
		"positionLon":114.11173146525162,
		"positionLat":22.547162292933148,
		"name":"深圳戴斯酒店",
		"uri":"./3Dmodels/深圳戴斯酒店.gltf"
	}
	,{
		"positionLon":114.08301144183008,
		"positionLat":22.54358764366885,
		"name":"深圳电子大厦ShenzhenElectricBuilding(China)",
		"uri":"./3Dmodels/深圳电子大厦ShenzhenElectricBuilding(China).gltf"
	}
	,{
		"positionLon":114.11869488272968,
		"positionLat":22.546908959212637,
		"name":"深圳富丽华大酒店",
		"uri":"./3Dmodels/深圳富丽华大酒店.gltf"
	}
	,{
		"positionLon":114.11576278187266,
		"positionLat":22.544677939242725,
		"name":"深圳富苑皇冠假日套房酒店",
		"uri":"./3Dmodels/深圳富苑皇冠假日套房酒店.gltf"
	}
	,{
		"positionLon":114.07750474028997,
		"positionLat":22.54377487629099,
		"name":"深圳格兰云天酒店.gltf",
		"uri":"./3Dmodels/深圳格兰云天酒店.gltf"
	}
	,{
		"positionLon":114.08993717347664,
		"positionLat":22.543944248563406,
		"name":"深圳购书中心（中核大厦）ShenzhenBookCenter(ChinaNitionalNuclearCorporationCo.Ltd)",
		"uri":"./3Dmodels/深圳购书中心（中核大厦）ShenzhenBookCenter(ChinaNitionalNuclearCorporationCo.Ltd).gltf"
	}
	,{
		"positionLon":114.07264870149345,
		"positionLat":22.541964977045925,
		"name":"深圳国际文化大厦ShenzhenInternationalCultureBuilding(China)",
		"uri":"./3Dmodels/深圳国际文化大厦ShenzhenInternationalCultureBuilding(China).gltf"
	}
	,{
		"positionLon":114.11221184527493,
		"positionLat":22.54444299404844,
		"name":"深圳海外联谊大厦 ShenzhenOverseaFriendshipBuilding(China)",
		"uri":"./3Dmodels/深圳海外联谊大厦 ShenzhenOverseaFriendshipBuilding(China).gltf"
	}
	,{
		"positionLon":114.10915967173338,
		"positionLat":22.546781041909266,
		"name":"深圳和平广场 Shenzhen Peace Plaza(China)",
		"uri":"./3Dmodels/深圳和平广场 Shenzhen Peace Plaza(China).gltf"
	}
	,{
		"positionLon":114.0877053817699,
		"positionLat":22.54274166281874,
		"name":"深圳核电大厦ShenzhenNuclearPowerBuilding(China)",
		"uri":"./3Dmodels/深圳核电大厦ShenzhenNuclearPowerBuilding(China).gltf"
	}
	,{
		"positionLon":114.10254035351066,
		"positionLat":22.553230746292694,
		"name":"深圳红桂大酒店",
		"uri":"./3Dmodels/深圳红桂大酒店.gltf"
	}
	,{
		"positionLon":114.11959558997894,
		"positionLat":22.54003123541359,
		"name":"深圳鸿丰大酒店",
		"uri":"./3Dmodels/深圳鸿丰大酒店.gltf"
	}
	,{
		"positionLon":114.10916749505661,
		"positionLat":22.545950494098268,
		"name":"深圳鸿隆世纪广场ShenzhenHonglongCenturyPlaza(China)",
		"uri":"./3Dmodels/深圳鸿隆世纪广场ShenzhenHonglongCenturyPlaza(China).gltf"
	}
	,{
		"positionLon":114.10537347789464,
		"positionLat":22.54646053154085,
		"name":"深圳华安国际大酒店",
		"uri":"./3Dmodels/深圳华安国际大酒店.gltf"
	}
	,{
		"positionLon":114.08538761117863,
		"positionLat":22.542903562172388,
		"name":"深圳华垦大厦ShenzhenHuakenBuilding(China)",
		"uri":"./3Dmodels/深圳华垦大厦ShenzhenHuakenBuilding(China).gltf"
	}
	,{
		"positionLon":114.08042715244248,
		"positionLat":22.546639945144275,
		"name":"深圳华强广场酒店",
		"uri":"./3Dmodels/深圳华强广场酒店.gltf"
	}
	,{
		"positionLon":114.08117621848976,
		"positionLat":22.54361601756273,
		"name":"深圳华强集团ShenzhenHuaqiangHoldingsLtd.(China)",
		"uri":"./3Dmodels/深圳华强集团ShenzhenHuaqiangHoldingsLtd.(China).gltf"
	}
	,{
		"positionLon":114.10616997109908,
		"positionLat":22.542381108753574,
		"name":"深圳华润万象城TheMixcShenzhen(China)",
		"uri":"./3Dmodels/深圳华润万象城TheMixcShenzhen(China).gltf"
	}
	,{
		"positionLon":114.10481212272029,
		"positionLat":22.557753884834057,
		"name":"深圳华通紫荆花酒店",
		"uri":"./3Dmodels/深圳华通紫荆花酒店.gltf"
	}
	,{
		"positionLon":114.11199617184188,
		"positionLat":22.534378297866443,
		"name":"深圳火车站ShenzhenRailwayStation(China)",
		"uri":"./3Dmodels/深圳火车站ShenzhenRailwayStation(China).gltf"
	}
	,{
		"positionLon":114.11916955854313,
		"positionLat":22.540870731144068,
		"name":"深圳金碧酒店",
		"uri":"./3Dmodels/深圳金碧酒店.gltf"
	}
	,{
		"positionLon":114.1007335139645,
		"positionLat":22.542329649153363,
		"name":"深圳京基晶都酒店",
		"uri":"./3Dmodels/深圳京基晶都酒店.gltf"
	}
	,{
		"positionLon":114.12566258134434,
		"positionLat":22.55399085953584,
		"name":"深圳俊园酒店",
		"uri":"./3Dmodels/深圳俊园酒店.gltf"
	}
	,{
		"positionLon":114.07622934142148,
		"positionLat":22.5414852313165,
		"name":"深圳雷圳大厦ShenzhenLeizhenBuilding(China)",
		"uri":"./3Dmodels/深圳雷圳大厦ShenzhenLeizhenBuilding(China).gltf"
	}
	,{
		"positionLon":114.10000620551479,
		"positionLat":22.54893498585265,
		"name":"深圳荔园酒店LiyuanHotelShenzhen(China)",
		"uri":"./3Dmodels/深圳荔园酒店LiyuanHotelShenzhen(China).gltf"
	}
	,{
		"positionLon":114.11599388002774,
		"positionLat":22.544220759806795,
		"name":"深圳罗湖大酒店",
		"uri":"./3Dmodels/深圳罗湖大酒店.gltf"
	}
	,{
		"positionLon":114.11566287493828,
		"positionLat":22.535674179184692,
		"name":"深圳罗湖戴斯酒店",
		"uri":"./3Dmodels/深圳罗湖戴斯酒店.gltf"
	}
	,{
		"positionLon":114.12234300652058,
		"positionLat":22.56732418643095,
		"name":"深圳明阳酒店",
		"uri":"./3Dmodels/深圳明阳酒店"
	}
	,{
		"positionLon":114.1247597685233,
		"positionLat":22.548013445334536,
		"name":"深圳南方联合大酒店",
		"uri":"./3Dmodels/深圳南方联合大酒店.gltf"
	}
	,{
		"positionLon":114.10229538526823,
		"positionLat":22.54424497373384,
		"name":"深圳农业银行大厦ShenzhenSub-branch,AgriculturalBankofChina",
		"uri":"./3Dmodels/深圳农业银行大厦ShenzhenSub-branch,AgriculturalBankofChina.gltf"
	}
	,{
		"positionLon":114.08488549776271,
		"positionLat":22.548721900597098,
		"name":"深圳日月时尚商务酒店",
		"uri":"./3Dmodels/深圳日月时尚商务酒店.gltf"
	}
	,{
		"positionLon":114.08216282282373,
		"positionLat":22.541594841990005,
		"name":"深圳赛格苑ShenzhenSEGGarden(China)",
		"uri":"./3Dmodels/深圳赛格苑ShenzhenSEGGarden(China).gltf"
	}
	,{
		"positionLon":114.08361583472951,
		"positionLat":22.54656447791255,
		"name":"深圳山水时尚酒店(华强北店)ShenzhenShanshuiHotelHuaqiangNorth(China)",
		"uri":"./3Dmodels/深圳山水时尚酒店(华强北店)ShenzhenShanshuiHotelHuaqiangNorth(China).gltf"
	}
	,{
		"positionLon":114.11915062639679,
		"positionLat":22.537201347568605,
		"name":"深圳山水时尚酒店(罗湖店)",
		"uri":"./3Dmodels/深圳山水时尚酒店(罗湖店).gltf"
	}
	,{
		"positionLon":114.12495297779346,
		"positionLat":22.552937970340423,
		"name":"深圳升逸酒店",
		"uri":"./3Dmodels/深圳升逸酒店.gltf"
	}
	,{
		"positionLon":114.13199677545454,
		"positionLat":22.54406444652671,
		"name":"深圳圣廷轩酒店",
		"uri":"./3Dmodels/深圳圣廷轩酒店.gltf"
	}
	,{
		"positionLon":114.08280380173025,
		"positionLat":22.552289121166808,
		"name":"深圳圣廷苑酒店ShenzhenPavilionHotel(China)",
		"uri":"./3Dmodels/深圳圣廷苑酒店ShenzhenPavilionHotel(China).gltf"
	}
	,{
		"positionLon":114.08227429596003,
		"positionLat":22.553498757644633,
		"name":"深圳圣廷苑酒店世纪楼",
		"uri":"./3Dmodels/深圳圣廷苑酒店世纪楼.gltf"
	}
	,{
		"positionLon":114.07819935954336,
		"positionLat":22.54154380819648,
		"name":"深圳世贸广场ShenzhenWorldTradePlaza(China)",
		"uri":"./3Dmodels/深圳世贸广场ShenzhenWorldTradePlaza(China).gltf"
	}
	,{
		"positionLon":114.07331456407731,
		"positionLat":22.540675042829356,
		"name":"深圳市福田中学教学楼ShenzhenFutianMiddleSchoolTeachingBuilding",
		"uri":"./3Dmodels/深圳市福田中学教学楼ShenzhenFutianMiddleSchoolTeachingBuilding.gltf"
	}
	,{
		"positionLon":114.07345865151993,
		"positionLat":22.5413880738084,
		"name":"深圳市福田中学体育场馆ShenzhenFutianMiddleSchoolStadiumGymnasium",
		"uri":"./3Dmodels/深圳市福田中学体育场馆ShenzhenFutianMiddleSchoolStadiumGymnasium.gltf"
	}
	,{
		"positionLon":114.07364389606359,
		"positionLat":22.540222026789635,
		"name":"深圳市福田中学图书馆办公楼ShenzhenFutianMiddleSchoolLibraryOfficeBuilding(China)",
		"uri":"./3Dmodels/深圳市福田中学图书馆办公楼ShenzhenFutianMiddleSchoolLibraryOfficeBuilding(China).gltf"
	}
	,{
		"positionLon":114.07250827879584,
		"positionLat":22.539752094689092,
		"name":"深圳市福田中学学生宿舍ShenzhenFutianMiddleSchoolDormitory",
		"uri":"./3Dmodels/深圳市福田中学学生宿舍ShenzhenFutianMiddleSchoolDormitory.gltf"
	}
	,{
		"positionLon":114.1035151197694,
		"positionLat":22.547265131494306,
		"name":"深圳市公安局ShenzhenMunicipalPublicSecurityBureau(China)",
		"uri":"./3Dmodels/深圳市公安局ShenzhenMunicipalPublicSecurityBureau(China).gltf"
	}
	,{
		"positionLon":114.10413343839309,
		"positionLat":22.54596611140593,
		"name":"深圳市公安局综合办证服务中心ShenzhenComprehensiveRushServiceCenter(China)",
		"uri":"./3Dmodels/深圳市公安局综合办证服务中心ShenzhenComprehensiveRushServiceCenter(China).gltf"
	}
	,{
		"positionLon":114.13066128535405,
		"positionLat":22.57148221603351,
		"name":"深圳万事达酒店",
		"uri":"./3Dmodels/深圳万事达酒店.gltf"
	}
	,{
		"positionLon":114.1179694716594,
		"positionLat":22.55172314172487,
		"name":"深圳维景酒店ShenzhenMetroParkHotel(China)",
		"uri":"./3Dmodels/深圳维景酒店ShenzhenMetroParkHotel(China).gltf"
	}
	,{
		"positionLon":114.11290023250037,
		"positionLat":22.53616255298873,
		"name":"深圳香格里拉大酒店",
		"uri":"./3Dmodels/深圳香格里拉大酒店.gltf"
	}
	,{
		"positionLon":114.11179340050528,
		"positionLat":22.54722746542684,
		"name":"深圳新安酒店",
		"uri":"./3Dmodels/深圳新安酒店.gltf"
	}
	,{
		"positionLon":114.11275687945435,
		"positionLat":22.538339663963097,
		"name":"深圳新都酒店",
		"uri":"./3Dmodels/深圳新都酒店.gltf"
	}
	,{
		"positionLon":114.10955088109924,
		"positionLat":22.542286083122864,
		"name":"深圳新时代酒店",
		"uri":"./3Dmodels/深圳新时代酒店.gltf"
	}
	,{
		"positionLon":114.1284849265135,
		"positionLat":22.555387523459316,
		"name":"深圳新王朝酒店",
		"uri":"./3Dmodels/深圳新王朝酒店.gltf"
	}
	,{
		"positionLon":114.11747534593567,
		"positionLat":22.542558102323305,
		"name":"深圳阳光酒店",
		"uri":"./3Dmodels/深圳阳光酒店.gltf"
	}
	,{
		"positionLon":114.10179428124457,
		"positionLat":22.552792777538343,
		"name":"深圳长城大酒店",
		"uri":"./3Dmodels/深圳长城大酒店.gltf"
	}
	,{
		"positionLon":114.10628103713016,
		"positionLat":22.546583153239364,
		"name":"深圳振业大厦ShenzhenZhenyeBuilding(China)",
		"uri":"./3Dmodels/深圳振业大厦ShenzhenZhenyeBuilding(China).gltf"
	}
	,{
		"positionLon":114.08761048443186,
		"positionLat":22.54459686809547,
		"name":"深圳芝加哥国际公寓酒店",
		"uri":"./3Dmodels/深圳芝加哥国际公寓酒店.gltf"
	}
	,{
		"positionLon":114.1215220779779,
		"positionLat":22.60120031577514,
		"name":"万科红1",
		"uri":"./3Dmodels/万科红1.gltf"
	}
	,{
		"positionLon":114.11691977752409,
		"positionLat":22.599950667796193,
		"name":"信义555",
		"uri":"./3Dmodels/信义555.gltf"
	}
	,{
		"positionLon":114.10262322678261,
		"positionLat":22.544886002078478,
		"name":"中国人民银行深圳分行ShenzhenBranchOfThePeople'sBankOfChina",
		"uri":"./3Dmodels/中国人民银行深圳分行ShenzhenBranchOfThePeople'sBankOfChina"
	}
	,{
		"positionLon":113.91964216308737,
		"positionLat":22.528074517597414,
		"name":"光彩新天地",
		"uri":"./3Dmodels/光彩新天地.gltf"
	}
	,{
		"positionLon":113.92270600895245,
		"positionLat":22.526594991680092,
		"name":"南山岁宝",
		"uri":"./3Dmodels/南山岁宝.gltf"
	}
	,{
		"positionLon":113.99338169796994,
		"positionLat":22.539031487079292,
		"name":"深圳博林诺富特酒店",
		"uri":"./3Dmodels/深圳博林诺富特酒店.gltf"
	}
	,{
		"positionLon":114.00102902654123,
		"positionLat":22.536810464182494,
		"name":"深圳博园商务酒店",
		"uri":"./3Dmodels/深圳博园商务酒店.gltf"
	}
	,{
		"positionLon":113.93173529918286,
		"positionLat":22.538225720424734,
		"name":"深圳大学科技楼",
		"uri":"./3Dmodels/深圳大学科技楼.gltf"
	}
	,{
		"positionLon":113.93043276597723,
		"positionLat":22.53557429252446,
		"name":"深圳大学图书馆",
		"uri":"./3Dmodels/深圳大学图书馆.gltf"
	}
	,{
		"positionLon":113.9321122296891,
		"positionLat":22.53601782047985,
		"name":"深圳大学宿舍",
		"uri":"./3Dmodels/深圳大学宿舍.gltf"
	}
	,{
		"positionLon":114.00779180067397,
		"positionLat":22.53786373683105,
		"name":"深圳东方银座美爵酒店",
		"uri":"./3Dmodels/深圳东方银座美爵酒店.gltf"
	}
	,{
		"positionLon":113.93055533624005,
		"positionLat":22.544843079319364,
		"name":"深圳华强高新发展大楼",
		"uri":"./3Dmodels/深圳华强高新发展大楼.gltf"
	}
	,{
		"positionLon":113.94304812803426,
		"positionLat":22.542371077087303,
		"name":"深圳联想研发中心大厦",
		"uri":"./3Dmodels/深圳联想研发中心大厦.gltf"
	}
	,{
		"positionLon":113.96960299643901,
		"positionLat":22.537149495746867,
		"name":"深圳世界之窗埃菲尔铁塔",
		"uri":"./3Dmodels/深圳世界之窗埃菲尔铁塔.gltf"
	}
	,{
		"positionLon":113.94416620441044,
		"positionLat":22.541168292151177,
		"name":"深圳市中兴ZTE大厦",
		"uri":"./3Dmodels/深圳市中兴ZTE大厦.gltf"
	}
	,{
		"positionLon":113.92960748591022,
		"positionLat":22.54369676882958,
		"name":"深圳腾讯大厦",
		"uri":"./3Dmodels/深圳腾讯大厦.gltf"
	},
	{
		"positionLon":114.04883128692221,
		"positionLat":22.548354555049524,
		"name":"黄埔雅苑乐悠园",
		"uri":"./3Dmodels/黄埔雅苑乐悠园.gltf"
	},{
		"positionLon":114.05087831346597,
		"positionLat":22.545441364345635,
		"name":"荣超中心",
		"uri":"./3Dmodels/荣超中心.gltf"
	}
	,{
		"positionLon":114.05833023068303,
		"positionLat":22.546698712697182,
		"name":"深圳地铁大厦",
		"uri":"./3Dmodels/深圳地铁大厦.gltf"
	}
	,{
		"positionLon":114.05444092992921,
		"positionLat":22.54582408990844,
		"name":"深圳市民中心",
		"uri":"./3Dmodels/深圳市民中心.gltf"
	}
	,{
		"positionLon":114.05200002733764,
		"positionLat":22.550303730666553,
		"name":"深圳音乐厅",
		"uri":"./3Dmodels/深圳音乐厅.gltf"
	}
	,{
		"positionLon":114.04866868592212,
		"positionLat":22.543833927996037,
		"name":"深圳证券交易所",
		"uri":"./3Dmodels/深圳证券交易所.gltf"
	}
	,{
		"positionLon":114.05061567193087,
		"positionLat":22.548178549576132,
		"name":"newWorldCenter",
		"uri":"./3Dmodels/newWorldCenter.gltf"
	}
	,{
		"positionLon":114.05674703436439,
		"positionLat":22.55048927950977,
		"name":"深圳少年宫",
		"uri":"./3Dmodels/深圳少年宫.gltf"
	}
	,{
		"positionLon":114.0520230428113,
		"positionLat":22.55030520130254,
		"name":"深圳图书馆",
		"uri":"./3Dmodels/深圳图书馆.gltf"
	}
	,{
		"positionLon":114.05803620829765,
		"positionLat":22.5489111834688,
		"name":"深圳经贸中心",
		"uri":"./3Dmodels/深圳经贸中心.gltf"
	}
	,{
		"positionLon":114.05854098086846,
		"positionLat":22.54580532562316,
		"name":"深圳诺德中心",
		"uri":"./3Dmodels/深圳诺德中心.gltf"
	}
	,{
		"positionLon":114.05557191416571,
		"positionLat":22.549265926063196,
		"name":"深圳中心书城",
		"uri":"./3Dmodels/深圳中心书城.gltf"
	}
	
	,{
		"positionLon":114.05959691906372,
		"positionLat":22.543827791974763,
		"name":"中国凤凰大厦",
		"uri":"./3Dmodels/中国凤凰大厦.gltf"
	},{
		"positionLon":114.06130575868278,
		"positionLat":22.550018336418336,
		"name":"深圳中银花园",
		"uri":"./3Dmodels/深圳中银花园.gltf"
	}
	,{
		"positionLon":114.06142624512704,
		"positionLat":22.550204202324746,
		"name":"深圳中银大厦",
		"uri":"./3Dmodels/深圳中银大厦.gltf"
	}
	
	
	,{
		"positionLon":114.06150163673253,
		"positionLat":22.54146665549129,
		"name":"深圳嘉麟豪庭",
		"uri":"./3Dmodels/深圳嘉麟豪庭.gltf"
	}
	,{
		"positionLon":114.054617983413,
		"positionLat":22.53336814594387,
		"name":"深圳会展中心",
		"uri":"./3Dmodels/深圳会展中心.gltf"
	}
	,{
		"positionLon":114.05196009720879,
		"positionLat":22.536133666528013,
		"name":"荣超国际商会中心",
		"uri":"./3Dmodels/荣超国际商会中心.gltf"
	}
	,{
		"positionLon":114.05301757672237,
		"positionLat":22.538501102837145,
		"name":"卓越时代广场第二期",
		"uri":"./3Dmodels/卓越时代广场第二期.gltf"
	}
	,{
		"positionLon":114.05660057560031,
		"positionLat":22.536713487165553,
		"name":"深圳丽思卡尔顿酒店",
		"uri":"./3Dmodels/深圳丽思卡尔顿酒店.gltf"
	}
	,{
		"positionLon":114.05292791320626,
		"positionLat":22.538512298599777,
		"name":"深圳嘉里建设广场二期",
		"uri":"./3Dmodels/深圳嘉里建设广场二期.gltf"
	}
	,{
		"positionLon":114.05835108240798,
		"positionLat":22.54964242821552,
		"name":"ShenzhenMetroHeadquarter",
		"uri":"./3Dmodels/ShenzhenMetroHeadquarter.gltf"
	}
	,{
		"positionLon":114.01738730244831,
		"positionLat":22.539865823288203,
		"name":"深圳招商银行大厦",
		"uri":"./3Dmodels/深圳招商银行大厦.gltf"
	}
	,{
		"positionLon":114.04400056916234,
		"positionLat":22.559470517203593,
		"name":"北京大学深圳医院住院部",
		"uri":"./3Dmodels/北京大学深圳医院住院部.gltf"
	}
	,{
		"positionLon":114.0568515949609,
		"positionLat":22.538379018302617,
		"name":"大中华国际交易广场",
		"uri":"./3Dmodels/大中华国际交易广场.gltf"
	}
	,{
		"positionLon":114.04136407802487,
		"positionLat":22.534663126106807,
		"name":"国际高尔夫花园绿茵豪苑",
		"uri":"./3Dmodels/国际高尔夫花园绿茵豪苑.gltf"
	}
	,{
		"positionLon":114.061044410045,
		"positionLat":22.536158575138877,
		"name":"恒运豪庭",
		"uri":"./3Dmodels/恒运豪庭.gltf"
	}
	,{
		"positionLon":114.0556487696701,
		"positionLat":22.53056502944387,
		"name":"皇岗村民房",
		"uri":"./3Dmodels/皇岗村民房.gltf"
	}
	,{
		"positionLon":114.05741869985354,
		"positionLat":22.529452261808988,
		"name":"皇岗村民房2",
		"uri":"./3Dmodels/皇岗村民房.gltf"
	}
	,{
		"positionLon":114.04588673145287,
		"positionLat":22.548507646880722,
		"name":"黄埔雅苑翠悠园78栋",
		"uri":"./3Dmodels/黄埔雅苑翠悠园78栋.gltf"
	}
	
	,{
		"positionLon":114.04587422947893,
		"positionLat":22.548483748239008,
		"name":"黄埔雅苑翠悠园123栋",
		"uri":"./3Dmodels/黄埔雅苑翠悠园123栋.gltf"
	}
,{
		"positionLon":114.04588776600698,
		"positionLat":22.548514138496408,
		"name":"黄埔雅苑翠悠园456栋",
		"uri":"./3Dmodels/黄埔雅苑翠悠园456栋.gltf"
	}
,{
		"positionLon":114.04573236161005,
		"positionLat":22.54621269867238,
		"name":"黄埔雅苑二期逸悠园78栋",
		"uri":"./3Dmodels/黄埔雅苑二期逸悠园78栋.gltf"
	}
	,{
		"positionLon":114.04573863990647,
		"positionLat":22.546272667585395,
		"name":"黄埔雅苑二期逸悠园123栋",
		"uri":"./3Dmodels/黄埔雅苑二期逸悠园123栋.gltf"
	}
,{
		"positionLon":114.04564975906102,
		"positionLat":22.546263829182493,
		"name":"黄埔雅苑二期逸悠园456栋",
		"uri":"./3Dmodels/黄埔雅苑二期逸悠园456栋.gltf"
	}


,{
		"positionLon":114.0472259410639,
		"positionLat":22.546192737188424,
		"name":"黄埔雅苑会所",
		"uri":"./3Dmodels/黄埔雅苑会所.gltf"
	}
	
	
,{
		"positionLon":114.04887935256997,
		"positionLat":22.548383278978665,
		"name":"黄埔雅苑骏悠园",
		"uri":"./3Dmodels/黄埔雅苑骏悠园.gltf"
	}
	,{
		"positionLon":114.0506070174385,
		"positionLat":22.549087346907314,
		"name":"江苏大厦",
		"uri":"./3Dmodels/江苏大厦.gltf"
	}
	,{
		"positionLon":114.03505164453674,
		"positionLat":22.51902959880453,
		"name":"绿景蓝湾半岛",
		"uri":"./3Dmodels/绿景蓝湾半岛.gltf"
	}
	,{
		"positionLon":114.0143126862131,
		"positionLat":22.53702744246091,
		"name":"深航锦江国际酒店",
		"uri":"./3Dmodels/深航锦江国际酒店.gltf"
	}
	,{
		"positionLon":114.02724889088454,
		"positionLat":22.53917321289487,
		"name":"深圳JW万豪酒店",
		"uri":"./3Dmodels/深圳JW万豪酒店.gltf"
	}
	
	,{
		"positionLon":114.05859991839537,
		"positionLat":22.53593574507854,
		"name":"深圳财富大厦",
		"uri":"./3Dmodels/深圳财富大厦.gltf"
	}
	,{
		"positionLon":114.0465154557852,
		"positionLat":22.53374576002496,
		"name":"深圳城中雅苑",
		"uri":"./3Dmodels/深圳城中雅苑.gltf"
	}
	
	,{
		"positionLon":114.04914654432352,
		"positionLat":22.550394861933643,
		"name":"深圳儿童医院",
		"uri":"./3Dmodels/深圳儿童医院.gltf"
	}
	
	,{
		"positionLon":114.0506263293225,
		"positionLat":22.539179677197268,
		"name":"深圳丰立大厦",
		"uri":"./3Dmodels/深圳丰立大厦.gltf"
	}
	,{
		"positionLon":114.05671743233665,
		"positionLat":22.514403062243552,
		"name":"深圳福朋喜来登酒店",
		"uri":"./3Dmodels/深圳福朋喜来登酒店.gltf"
	}
	,{
		"positionLon":114.05256027753911,
		"positionLat":22.539000058091215,
		"name":"深圳福田香格里拉大酒店",
		"uri":"./3Dmodels/深圳福田香格里拉大酒店.gltf"
	}
	,{
		"positionLon":114.04946395801443,
		"positionLat":22.511751580028488,
		"name":"深圳福源花园三期",
		"uri":"./3Dmodels/深圳福源花园三期.gltf"
	}
	
	,{
		"positionLon":114.03883463986723,
		"positionLat":22.543430963577247,
		"name":"深圳富瑞斯国际公寓酒店",
		"uri":"./3Dmodels/深圳富瑞斯国际公寓酒店.gltf"
	}
	,{
		"positionLon":114.04594863702917,
		"positionLat":22.543977143186165,
		"name":"深圳富瑞斯国际公寓酒店",
		"uri":"./3Dmodels/深圳广播电影电视集团大厦.gltf"
	}
	
	,{
		"positionLon":114.04613507663132,
		"positionLat":22.539872302128074,
		"name":"深圳国际商会大厦",
		"uri":"./3Dmodels/深圳国际商会大厦.gltf"
	}
	,{
		"positionLon":114.04520044814123,
		"positionLat":22.540165568614903,
		"name":"深圳国际商会大厦B栋",
		"uri":"./3Dmodels/深圳国际商会大厦B栋.gltf"
	}
	,{
		"positionLon":114.06121887425745,
		"positionLat":22.543894721338365,
		"name":"深圳海关",
		"uri":"./3Dmodels/深圳海关.gltf"
	}
	
	,{
		"positionLon":114.04617560515659,
		"positionLat":22.54136280974453,
		"name":"深圳航天大厦",
		"uri":"./3Dmodels/深圳航天大厦.gltf"
	}
	
	,{
		"positionLon":114.04253371538852,
		"positionLat":22.530485129916777,
		"name":"深圳湖北大厦",
		"uri":"./3Dmodels/深圳湖北大厦.gltf"
	}
	
	,{
		"positionLon":114.04845006367403,
		"positionLat":22.54111861708478,
		"name":"深圳华融大厦",
		"uri":"./3Dmodels/深圳华融大厦.gltf"
	}
	
	
	,{
		"positionLon":114.0558197828885,
		"positionLat":22.526343905601532,
		"name":"深圳皇轩酒店",
		"uri":"./3Dmodels/深圳皇轩酒店.gltf"
	}
	
	,{
		"positionLon":114.04530493005106,
		"positionLat":22.525205688445304,
		"name":"深圳皇悦酒店",
		"uri":"./3Dmodels/深圳皇轩酒店.gltf"
	}
	
	,{
		"positionLon":114.04326361850653,
		"positionLat":22.561481506844505,
		"name":"深圳吉莲大厦",
		"uri":"./3Dmodels/深圳吉莲大厦.gltf"
	}
	
	
	,{
		"positionLon":114.03834103153915,
		"positionLat":22.517186298925914,
		"name":"深圳金地海景花园",
		"uri":"./3Dmodels/深圳金地海景花园.gltf"
	}
	
	,{
		"positionLon":114.05732739357822,
		"positionLat":22.53692244496022,
		"name":"深圳金中環酒店公寓",
		"uri":"./3Dmodels/深圳金中環酒店公寓.gltf"
	}
	
	,{
		"positionLon":114.0402782073203,
		"positionLat":22.560921238954425,
		"name":"深圳景龙大厦",
		"uri":"./3Dmodels/深圳景龙大厦.gltf"
	}
	
	,{
		"positionLon":114.04082975306962,
		"positionLat":22.559729358235458,
		"name":"深圳景鹏大厦",
		"uri":"./3Dmodels/深圳景鹏大厦.gltf"
	}
	
	,{
		"positionLon":114.03971942753279,
		"positionLat":22.555312043604218,
		"name":"深圳景田酒店",
		"uri":"./3Dmodels/深圳景田酒店.gltf"
	}
	
	,{
		"positionLon":114.06226994403394,
		"positionLat":22.53689813308927,
		"name":"深圳景轩酒店",
		"uri":"./3Dmodels/深圳景轩酒店.gltf"
	}
	,{
		"positionLon":114.04713411799433,
		"positionLat":22.5305726876101,
		"name":"深圳葵花公寓酒店",
		"uri":"./3Dmodels/深圳葵花公寓酒店.gltf"
	}
	
	,{
		"positionLon":114.04987242546969,
		"positionLat":22.541700999209993,
		"name":"深圳联通大厦",
		"uri":"./3Dmodels/深圳联通大厦.gltf"
	}
	,{
		"positionLon":114.03563480593185,
		"positionLat":22.571973735214844,
		"name":"深圳梅林一村3区",
		"uri":"./3Dmodels/深圳梅林一村3区.gltf"
	}
	
	,{
		"positionLon":114.05050115926777,
		"positionLat":22.54005710731911,
		"name":"深圳免税商务大厦",
		"uri":"./3Dmodels/深圳免税商务大厦.gltf"
	}
	
	,{
		"positionLon":114.03537476736349,
		"positionLat":22.53110498929359,
		"name":"深圳趣园私人酒店公寓",
		"uri":"./3Dmodels/深圳趣园私人酒店公寓.gltf"
	}
	,{
		"positionLon":114.03379340300475,
		"positionLat":22.526253725811703,
		"name":"深圳沙嘴酒店",
		"uri":"./3Dmodels/深圳沙嘴酒店.gltf"
	}
	
	,{
		"positionLon":114.04293385027638,
		"positionLat":22.553997360155236,
		"name":"深圳商报大厦",
		"uri":"./3Dmodels/深圳商报大厦.gltf"
	}
	
	,{
		"positionLon":114.05031875573542,
		"positionLat":22.540879934635292,
		"name":"深圳时代金融中心",
		"uri":"./3Dmodels/深圳时代金融中心.gltf"
	}
	
	,{
		"positionLon":114.03273137659406,
		"positionLat":22.561265261093464,
		"name":"深圳实华酒店",
		"uri":"./3Dmodels/深圳实华酒店.gltf"
	}
	
	,{
		"positionLon":114.04860763646883,
		"positionLat":22.54001757053221,
		"name":"深圳特美思大厦",
		"uri":"./3Dmodels/深圳特美思大厦.gltf"
	}
	,{
		"positionLon":114.04071832832442,
		"positionLat":22.543802607464574,
		"name":"深圳特区报业大厦",
		"uri":"./3Dmodels/深圳特区报业大厦.gltf"
	}
	
	,{
		"positionLon":114.04852493596547,
		"positionLat":22.54135054871034,
		"name":"深圳投资大厦",
		"uri":"./3Dmodels/深圳投资大厦.gltf"
	}
	
	,{
		"positionLon":114.02095119137469,
		"positionLat":22.540280495303012,
		"name":"深圳万科富春东方大厦",
		"uri":"./3Dmodels/深圳万科富春东方大厦.gltf"
	}
	
	,{
		"positionLon":114.03850942606277,
		"positionLat":22.524463498679555,
		"name":"深圳维也纳国际酒店",
		"uri":"./3Dmodels/深圳维也纳国际酒店.gltf"
	}
	
	,{
		"positionLon":114.04820737458009,
		"positionLat":22.568715362228787,
		"name":"深圳新世界都汇酒店公寓",
		"uri":"./3Dmodels/深圳新世界都汇酒店公寓.gltf"
	}
	
	,{
		"positionLon":114.0416720199226,
		"positionLat":22.53038192658627,
		"name":"深圳新洲酒店",
		"uri":"./3Dmodels/深圳新洲酒店.gltf"
	}
	
	,{
		"positionLon":114.05056939339751,
		"positionLat":22.538213960258258,
		"name":"深圳信息枢纽大厦",
		"uri":"./3Dmodels/深圳信息枢纽大厦.gltf"
	}
	
		,{
		"positionLon":114.06212689731076,
		"positionLat":22.540654349112998,
		"name":"深圳星河世纪大厦",
		"uri":"./3Dmodels/深圳星河世纪大厦.gltf"
	}
	
		,{
		"positionLon":114.04712823367964,
		"positionLat":22.541520297531033,
		"name":"深圳兴业银行大厦",
		"uri":"./3Dmodels/深圳兴业银行大厦.gltf"
	}
		,{
		"positionLon":114.06138012911985,
		"positionLat":22.546230437283562,
		"name":"深圳雅颂居",
		"uri":"./3Dmodels/深圳雅颂居.gltf"
	}
		,{
		"positionLon":114.04439740673374,
		"positionLat":22.519172940795237,
		"name":"深圳益田村",
		"uri":"./3Dmodels/深圳益田村.gltf"
	}
		,{
		"positionLon":114.04857486398156,
		"positionLat":22.517819008821768,
		"name":"深圳益田村2",
		"uri":"./3Dmodels/深圳益田村2.gltf"
	}
	,{
		"positionLon":114.04472307053882,
		"positionLat":22.51566289577801,
		"name":"深圳益田村3",
		"uri":"./3Dmodels/深圳益田村3.gltf"
	}
	,{
		"positionLon":114.0521608081369,
		"positionLat":22.517679313830126,
		"name":"深圳益田花园",
		"uri":"./3Dmodels/深圳益田花园.gltf"
	}
	,{
		"positionLon":114.01747486649215,
		"positionLat":22.537642781448973,
		"name":"深圳英龙大厦",
		"uri":"./3Dmodels/深圳英龙大厦.gltf"
	}
	,{
		"positionLon":114.05574477427497,
		"positionLat":22.5200061947174,
		"name":"深圳云顶翠峰一期",
		"uri":"./3Dmodels/深圳云顶翠峰一期.gltf"
	}
	
	,{
		"positionLon":114.01894253647644,
		"positionLat":22.539657342170205,
		"name":"深圳中南海逸酒店",
		"uri":"./3Dmodels/深圳中南海逸酒店.gltf"
	}
	
	,{
		"positionLon":114.04742159861529,
		"positionLat":22.53996926101409,
		"name":"深圳中心商务大厦",
		"uri":"./3Dmodels/深圳中心商务大厦.gltf"
	}
	
	,{
		"positionLon":114.04597034506664,
		"positionLat":22.54080862255817,
		"name":"深圳卓越大厦",
		"uri":"./3Dmodels/深圳卓越大厦.gltf"
	}
	,{
		"positionLon":114.05862376283683,
		"positionLat":22.5366561789977,
		"name":"现代国际大厦",
		"uri":"./3Dmodels/现代国际大厦.gltf"
	}
	
	,{
		"positionLon":114.05237638055723,
		"positionLat":22.5103234050124,
		"name":"长平商务大厦",
		"uri":"./3Dmodels/长平商务大厦.gltf"
	}
	
	,{
		"positionLon":114.05044669959817,
		"positionLat":22.54162011146875,
		"name":"中国港中旅大厦",
		"uri":"./3Dmodels/中国港中旅大厦.gltf"
	}
	,{
		"positionLon":114.05044669959817,
		"positionLat":22.54162011146875,
		"name":"中国港中旅大厦",
		"uri":"./3Dmodels/中国港中旅大厦.gltf"
	}
	
	]
}